[
  {
    "address": "C\/ TOMAS PAREDES, 6",
    "city": "VIGO",
    "flag": "GALP",
    "group": "GALPGEST",
    "id": "0000100",
    "latitude": "42.22169",
    "longitude": "-8.75344",
    "name": "E.S. GALP BOUZAS",
    "postal_code": "36208",
    "province": "PONTEVEDRA",
    "state": "A"
  },
  {
    "address": "C\/ TOMAS PAREDES, 6",
    "city": "VIGO",
    "flag": "GALP",
    "group": "GALPGEST",
    "id": "0000100",
    "latitude": "42.22169",
    "longitude": "-8.75344",
    "name": "E.S. GALP BOUZAS",
    "postal_code": "36208",
    "province": "PONTEVEDRA",
    "state": "U"
  },
  {
    "address": "C\/ TOMAS PAREDES, 6",
    "city": "VIGO",
    "flag": "GALP",
    "group": "GALPGEST",
    "id": "0000200",
    "latitude": "42.22169",
    "longitude": "-8.75344",
    "name": "E.S. GALP BOUZAS",
    "postal_code": "36208",
    "province": "PONTEVEDRA",
    "state": "D"
  },
  {
    "address": "CTRA.COLLBLANCH, 14-16",
    "city": "L'HOSPITALET DEL LLOBREGAT",
    "flag": "GALP",
    "group": "GALP",
    "id": "0050080",
    "latitude": "41.375834",
    "longitude": "2.120788",
    "name": "GALPGEST -LEVANTE-",
    "postal_code": "08903",
    "province": "BARCELONA",
    "state": "A"
  },
  {
    "address": "ALMOGAVARES, 66",
    "city": "BARCELONA",
    "flag": "GALP",
    "group": "GALP",
    "id": "0030081",
    "latitude": "41.355180",
    "longitude": "2.142052",
    "name": "GALPGEST -MATINDUS-",
    "postal_code": "08018",
    "province": "BARCELONA",
    "state": "A"
  },
  {
    "address": "AVDA. DE LA ARGENTINA S\/N",
    "city": "GIJON",
    "flag": "GALP",
    "group": "GALP",
    "id": "0001558",
    "latitude": "43.538223",
    "longitude": "-5.703661",
    "name": "E.S. GALP GIJON",
    "postal_code": "33212",
    "province": "ASTURIAS",
    "state": "A"
  },
  {
    "address": "CTRA.VV-3061 KM.11,7",
    "city": "GODELLETA",
    "flag": "GALP",
    "group": "GALP",
    "id": "0000540",
    "latitude": "39.425020",
    "longitude": "-0.680720",
    "name": "A.S.G.- GODELLETA",
    "postal_code": "46388",
    "province": "VALENCIA",
    "state": "A"
  },
  {
    "address": "PASEO ZONA FRANCA, 239",
    "city": "BARCELONA",
    "flag": "GALP",
    "group": "GALP",
    "id": "0001222",
    "latitude": "41.362994",
    "longitude": "2.136444",
    "name": "GALPGEST-E.S.BARCELONA",
    "postal_code": "08038",
    "province": "BARCELONA",
    "state": "A"
  },
  {
    "address": "EX-108 KM.74,700",
    "city": "EL BATAN",
    "flag": "GALP",
    "group": "GALP",
    "id": "0000520",
    "latitude": "39.972690",
    "longitude": "-6.373040",
    "name": "HISPANA DE COMBUSTIBLES",
    "postal_code": "10692",
    "province": "CACERES",
    "state": "A"
  },
  {
    "address": "CN-IV KM.140,5",
    "city": "PUERTO LAPICE",
    "flag": "GALP",
    "group": "GALP",
    "id": "0000251",
    "latitude": "39.288070",
    "longitude": "-3.454200",
    "name": "E.S. GALP PTO.LAPICE IZQ",
    "postal_code": "13650",
    "province": "CIUDAD REAL",
    "state": "A"
  },
  {
    "address": "CN-IV KM.140,5",
    "city": "PUERTO LAPICE",
    "flag": "GALP",
    "group": "GALP",
    "id": "0000250",
    "latitude": "39.287760",
    "longitude": "-3.456190",
    "name": "E.S. GALP PTO.LAPICE DCH",
    "postal_code": "13650",
    "province": "CIUDAD REAL",
    "state": "A"
  },
  {
    "address": "CN-IV KM.210,6",
    "city": "VALDEPE AS",
    "flag": "GALP",
    "group": "GALP",
    "id": "0000229",
    "latitude": "38.899660",
    "longitude": "-3.391350",
    "name": "E.S. GALP VALDEPENAS",
    "postal_code": "13300",
    "province": "CIUDAD REAL",
    "state": "A"
  },
  {
    "address": "C\/ACTOR TAVALLI",
    "city": "MELILLA",
    "flag": "SHELL",
    "group": "E.E.S.S.A.",
    "id": "5200100",
    "latitude": "35.287300",
    "longitude": "-2.941780",
    "name": "PUENTE DE TRIANA",
    "postal_code": "4",
    "province": "MELILLA",
    "state": "A"
  },
  {
    "address": "MUELLE DATO (CAÑONERO DATO) Nº8",
    "city": "CEUTA",
    "flag": "SHELL",
    "group": "E.E.S.S.A.",
    "id": "5170000",
    "latitude": "35.892296",
    "longitude": "-5.320591",
    "name": "E.S. SHELL MUELLE DATO",
    "postal_code": "2",
    "province": "CEUTA",
    "state": "A"
  },
  {
    "address": "AV.SAN JUAN DE DIOS ESQ. MARTINEZ CATENA",
    "city": "CEUTA",
    "flag": "SHELL",
    "group": "E.E.S.S.A.",
    "id": "5170100",
    "latitude": "35.886994",
    "longitude": "-5.320656",
    "name": "E.S. SHELL CATENA",
    "postal_code": "700",
    "province": "CEUTA",
    "state": "A"
  },
  {
    "address": "C\/ACTOR TAVALLI",
    "city": "MELILLA",
    "flag": "SHELL",
    "group": "E.E.S.S.A.",
    "id": "5200100",
    "latitude": "35.287300",
    "longitude": "-2.941780",
    "name": "PUENTE DE TRIANA",
    "postal_code": "52004",
    "province": "MELILLA",
    "state": "A"
  },
  {
    "address": "AV.SAN JUAN DE DIOS ESQ. MARTINEZ CATENA",
    "city": "CEUTA",
    "flag": "SHELL",
    "group": "E.E.S.S.A.",
    "id": "5170100",
    "latitude": "35.886994",
    "longitude": "-5.320656",
    "name": "E.S. SHELL CATENA",
    "postal_code": "51700",
    "province": "CEUTA",
    "state": "A"
  },
  {
    "address": "MUELLE DATO (CAÑONERO DATO) Nº8",
    "city": "CEUTA",
    "flag": "SHELL",
    "group": "E.E.S.S.A.",
    "id": "5170000",
    "latitude": "35.892296",
    "longitude": "-5.320591",
    "name": "E.S. SHELL MUELLE DATO",
    "postal_code": "51002",
    "province": "CEUTA",
    "state": "A"
  }
]